City_ID,City,Country,Lat,Lng,Max Temp,Humidity,Cloudiness,Wind Speed,Current Description,Hotel Name
0,Cabo San Lucas,MX,22.8909,-109.9124,87.1,61,20,5.75,few clouds,Hotel Tesoro Los Cabos
1,Celestun,MX,20.8667,-90.4,76.41,87,53,6.69,broken clouds,Posada Lilia
2,Yellowknife,CA,62.456,-114.3525,63.12,48,75,3.44,broken clouds,The Explorer Hotel
3,Jamestown,US,42.097,-79.2353,67.59,77,0,5.75,clear sky,Hampton Inn & Suites Jamestown
8,Banda Aceh,ID,5.5577,95.3222,86.09,61,97,11.03,overcast clouds,OYO 884 Rumoh PMI Hotel
12,Port Hardy,CA,50.6996,-127.4199,66.38,68,20,9.22,few clouds,Airport Inn-Port Hardy
16,Port Alfred,ZA,-33.5906,26.891,62.29,89,100,18.92,overcast clouds,The Halyards Hotel
17,Puerto Carreno,CO,6.189,-67.4859,76.05,89,94,4.25,overcast clouds,Casa Hotel Victoria
18,Atuona,PF,-9.8,-139.0333,76.91,72,42,23.62,scattered clouds,Hôtel Hiva Oa Hanakee Lodge
19,Quatre Cocos,MU,-20.2078,57.7625,66.31,69,97,20.78,light rain,Sunrise Attitude Hotel
21,Hithadhoo,MV,-0.6,73.0833,82.6,74,62,13.89,broken clouds,Scoop Guest House
22,Dalton,US,34.7698,-84.9702,76.68,95,90,1.48,overcast clouds,Hampton Inn Dalton
23,Campbell River,CA,50.0163,-125.2446,72.93,72,20,0.0,few clouds,Anchor Inn & Suites
24,Puerto Ayora,EC,-0.7393,-90.3518,67.55,100,100,5.01,light rain,Finch Bay Galapagos Hotel
27,Ponta Do Sol,PT,32.6667,-17.1,69.71,77,12,3.29,few clouds,Hotel do Campo
36,Hilo,US,19.7297,-155.09,84.27,80,100,6.91,overcast clouds,Hilo Hawaiian Hotel
37,Norman Wells,CA,65.282,-126.8329,69.84,43,0,4.61,clear sky,Heritage Hotel
39,Rikitea,PF,-23.1203,-134.9692,72.7,74,77,22.86,broken clouds,People ThankYou
40,Kahului,US,20.8947,-156.47,87.82,60,0,20.71,clear sky,Maui Seaside Hotel
42,Busselton,AU,-33.65,115.3333,60.08,66,0,17.98,clear sky,Observatory Guest House
45,Homer,US,59.6425,-151.5483,62.04,83,100,4.0,light rain,Beluga Lake Lodge
46,Sept-Iles,CA,50.2001,-66.3821,61.05,93,75,4.61,broken clouds,Comfort Inn
49,Thanh Hoa,VN,19.8,105.7667,76.44,97,100,1.99,heavy intensity rain,KHÁCH SẠN NGỌC LY 8
52,Raton,US,36.9034,-104.4391,69.31,59,0,3.44,clear sky,"Holiday Inn Express & Suites Raton, an IHG Hotel"
54,Mogocha,RU,53.7333,119.7667,61.36,85,100,2.15,light rain,Yalta Inn
55,Ribeira Grande,PT,38.5167,-28.7,74.75,81,100,11.56,overcast clouds,Quinta da Meia Eira
56,Vaini,TO,-21.2,-175.2,75.36,83,75,16.11,broken clouds,Keleti Beach Resort
58,Port-Cartier,CA,50.0334,-66.8654,60.75,95,85,5.19,overcast clouds,Le Q'Artier
59,Sao Gabriel Da Cachoeira,BR,-0.1303,-67.0892,71.91,96,34,2.77,scattered clouds,Alarne - Área De Lazer Do Alto Rio Negro
60,Lazaro Cardenas,MX,17.9583,-102.2,79.97,84,100,2.71,overcast clouds,HOTEL QUINTA ANTIGUA
61,Salalah,OM,17.0151,54.0924,75.29,100,100,5.75,light intensity drizzle,"HAMDAN PLAZA HOTEL SALALAH, an HTG Hotel"
63,Edwardsville,US,38.8114,-89.9532,78.35,90,75,5.01,broken clouds,Country Hearth Inn & Suites Edwardsville St. Louis
77,Imbituba,BR,-28.24,-48.6703,62.85,99,97,2.48,overcast clouds,Praia Hotel Imbituba
78,Syracuse,IT,37.0881,15.2792,72.99,67,2,2.91,clear sky,Hotel Posta
79,El Alto,PE,-4.2714,-81.2147,60.78,88,100,16.06,overcast clouds,Black Marlin Restaurant & Hospedaje
86,Marawi,PH,7.9986,124.2928,84.04,56,30,1.9,scattered clouds,Derogongan Residence
88,Saint John,CA,45.2727,-66.0677,61.83,100,100,2.3,fog,Delta Hotels by Marriott Saint John
89,Shingu,JP,33.7333,135.9833,82.42,86,99,6.04,overcast clouds,Shingu UI Hotel
90,Mortara,IT,45.2473,8.7355,74.71,65,98,3.24,overcast clouds,B&B Il Pioppo e La Fonte
91,Mayo,US,38.8876,-76.5119,80.98,80,0,4.61,clear sky,Resorts Resource Group International
96,Bethel,US,41.3712,-73.414,77.36,64,49,5.97,scattered clouds,Courtyard by Marriott Danbury
98,Isangel,VU,-19.55,169.2667,77.11,57,75,9.22,broken clouds,Tanna Lodge
99,Pacific Grove,US,36.6177,-121.9166,68.54,84,0,8.05,clear sky,Lovers Point Inn
101,Arraial Do Cabo,BR,-22.9661,-42.0278,67.14,76,15,13.38,few clouds,Pousada Porto Praia
102,Sao Joao Da Barra,BR,-21.6403,-41.0511,65.17,82,16,12.28,few clouds,Pousada Porto De Canoas
104,Kapaa,US,22.0752,-159.319,84.18,75,40,17.27,scattered clouds,Sheraton Kauai Coconut Beach Resort Hotel
105,Sebring,US,27.4956,-81.4409,76.89,90,0,5.75,clear sky,La Quinta Inn & Suites by Wyndham Sebring
106,Le Port,RE,-20.9373,55.2919,68.25,73,12,8.95,few clouds,KORBEY D'OR OUEST
107,Sao Felix Do Xingu,BR,-6.6447,-51.995,79.14,45,81,1.23,broken clouds,Rio Xingu Camping
108,Kirakira,SB,-10.4544,161.9205,81.61,80,98,8.32,moderate rain,SanBiz Lodge
112,Carnarvon,AU,-24.8667,113.6333,73.94,27,0,17.16,clear sky,Hospitality Carnarvon
113,Naze,JP,28.3667,129.4833,88.72,72,82,0.74,broken clouds,Shishime Hotel
115,Piazzola Sul Brenta,IT,45.5415,11.7844,73.18,50,99,4.25,overcast clouds,Hotel Posta 77
116,Thompson,CA,55.7435,-97.8558,69.96,64,40,5.75,scattered clouds,Burntwood Hotel
117,Saint-Pierre,RE,-21.3393,55.4781,67.91,68,0,6.91,clear sky,Alize Plage
119,Faya,SA,18.3851,42.4509,66.31,83,91,4.59,overcast clouds,املاك خالد الشعشوع
121,Kodiak,US,57.79,-152.4072,60.31,72,100,11.5,overcast clouds,Best Western Kodiak Inn
123,Sibolga,ID,1.7427,98.7792,85.98,57,84,3.74,broken clouds,Hotel Syariah CN Darussalam
125,Bandarbeyla,SO,9.4942,50.8122,79.79,63,73,27.27,broken clouds,JABIR HOTEL
126,Touros,BR,-5.1989,-35.4608,74.03,85,28,9.33,scattered clouds,INN NEW HORIZON
127,Bichura,RU,50.5881,107.6022,73.58,43,11,8.88,few clouds,Gostinitsa Uyut
128,Octeville,FR,49.6261,-1.6435,64.89,88,0,5.75,clear sky,Hôtel Le Louvre Cherbourg
129,Fairbanks,US,64.8378,-147.7164,73.36,42,0,0.0,clear sky,Westmark Fairbanks Hotel & Conference Center
131,Esna,EG,25.2934,32.554,86.02,24,56,11.16,broken clouds,Orient Star Dahabyia Isna 05 Nights Each Sunday
132,College,US,64.8569,-147.8028,73.35,43,75,0.0,broken clouds,Pike's Waterfront Lodge
135,Alice Springs,AU,-23.7,133.8833,60.35,27,0,11.5,clear sky,Desert Palms Alice Springs
136,Canchungo,GW,12.0672,-16.0333,76.86,89,99,7.61,light rain,Aparthotel Napalach
138,Argelia,CO,2.2556,-77.2488,63.79,96,71,0.89,light rain,Hotel San Fernando Argelia
139,Barauna,BR,-5.08,-37.6167,71.13,84,29,6.33,scattered clouds,Pousada Rancho do Sabiá
140,Kununurra,AU,-15.7667,128.7333,84.18,26,1,11.5,clear sky,Hotel Kununurra
141,Hervey Bay,AU,-25.2986,152.8535,66.79,73,100,9.46,overcast clouds,Shelly Bay Resort
142,Arkhangelsk,RU,64.5401,40.5433,60.91,77,20,8.95,few clouds,DVINA HOTEL
144,Novobirilyussy,RU,56.9514,90.6661,66.69,47,68,5.97,broken clouds,Gostinitsa
145,Avarua,CK,-21.2078,-159.775,77.05,78,75,12.66,broken clouds,Paradise Inn
146,Caravelas,BR,-17.7125,-39.2481,72.46,71,34,10.18,scattered clouds,Pousada dos Navegantes
147,Sandpoint,US,48.2766,-116.5533,70.68,85,75,0.0,broken clouds,Hotel Ruby Sandpoint/Ponderay
149,Srandakan,ID,-7.9386,110.2506,84.25,71,59,8.84,broken clouds,Puri Brata
150,Bulgan,MN,48.8125,103.5347,68.79,62,9,4.52,clear sky,Unitel Булган салбар
151,Wukari,NG,7.85,9.7833,70.48,97,100,5.03,overcast clouds,Elimtop
153,Bontang,ID,0.1333,117.5,84.2,72,90,6.62,overcast clouds,KOPKAR Hotel Bintang Sintuk
155,Milkovo,RU,54.7167,158.6167,77.36,46,10,0.72,clear sky,"Hotel ""Geologist"""
156,Bathsheba,BB,13.2167,-59.5167,81.21,83,20,12.66,few clouds,Atlantis Hotel
158,Mahon,ES,39.8885,4.2658,73.96,83,0,4.61,clear sky,ARTIEM Capri
159,Mount Isa,AU,-20.7333,139.5,74.97,25,44,8.05,scattered clouds,ibis Styles Mt Isa Verona
160,Saint George,US,37.1041,-113.5841,84.79,64,0,6.91,clear sky,Best Western Plus Abbey Inn
161,Kloulklubed,PW,7.0419,134.2556,79.3,68,92,4.21,overcast clouds,Storyboard Beach Resort
162,Ikwiriri,TZ,-7.9562,38.9716,67.82,91,46,1.48,scattered clouds,Greenland lodge
163,Vao,NC,-22.6667,167.4833,68.77,59,12,20.13,few clouds,Hotel Kou-Bugny
166,Aklavik,CA,68.2191,-135.0107,60.98,58,47,7.54,scattered clouds,Aklavik Inn
168,Saint-Philippe,RE,-21.3585,55.7679,63.99,82,75,17.27,light rain,Le four à pain
169,Bali,ID,-8.5,115.0,83.37,66,56,9.04,broken clouds,Pondok Pitaya
170,Takoradi,GH,4.8845,-1.7554,73.6,85,94,6.96,overcast clouds,Raybow International Hotel
171,Cayenne,GF,4.9333,-52.3333,80.1,1,0,0.0,clear sky,Hôtel Le Dronmi
172,Richards Bay,ZA,-28.783,32.0377,67.68,68,3,15.08,clear sky,BON Hotel Waterfront Richards Bay
173,Port Hedland,AU,-20.3167,118.5667,78.85,22,27,20.71,scattered clouds,The Esplanade Hotel
175,Linxia,CN,35.6003,103.2064,81.28,60,91,2.84,overcast clouds,GreenTree Inn Linxia Autonomous Prefecture Linxia Oxford River Avenue Express Hotel
176,Kampot,KH,10.6167,104.1833,86.05,66,80,7.58,broken clouds,Two Moons Hotel
177,Tayu,ID,-6.5397,111.0518,87.13,60,29,8.08,scattered clouds,Toko pakaian bu is Tayu
178,Zhanaozen,KZ,43.3,52.8,82.69,23,0,10.07,clear sky,K.korabay 28A
180,Dauphin,CA,51.1494,-100.0502,62.74,100,75,3.44,broken clouds,Canway Inn & Suites
181,Camacha,PT,33.0833,-16.3333,67.42,78,20,5.75,few clouds,Hotel Porto Santo & Spa
182,Sulangan,PH,11.1373,123.7228,83.8,68,42,4.07,scattered clouds,Maia's Beach Resort
184,Lumby,CA,50.2498,-118.969,75.79,46,83,3.44,broken clouds,Twin Creeks Motel
187,Birjand,IR,32.8663,59.2211,70.27,21,0,9.22,clear sky,Birjand Tourist Hotel
188,Meulaboh,ID,4.1363,96.1285,84.25,68,84,3.2,light rain,Kost Pria
189,Hamilton,US,39.1834,-84.5333,72.84,83,75,11.5,broken clouds,Six Acres Bed & Breakfast
190,Tandalti,SD,13.0167,31.8667,74.84,81,99,8.72,overcast clouds,منزل : الهادي محمد مساعد
191,Nouadhibou,MR,20.931,-17.0347,69.78,88,39,18.41,scattered clouds,El Medina
192,Camopi,GF,3.1655,-52.3158,71.38,99,36,2.3,scattered clouds,La pousada
193,Fort Nelson,CA,58.8053,-122.7002,65.79,59,75,4.61,broken clouds,The Fort Nelson Hotel
195,Port-Gentil,GA,-0.7193,8.7815,73.99,81,98,9.1,overcast clouds,Fengshui Residence
196,Hambantota,LK,6.1241,81.1185,84.54,84,20,4.61,few clouds,Bungalow 63
197,Mackenzie,CA,55.2999,-123.1698,79.02,44,0,4.61,clear sky,Hilton Shop
200,Koson,UZ,39.0375,65.585,75.52,20,0,14.05,clear sky,Hakimov Alisherning uyi
205,Alta Floresta,BR,-9.8756,-56.0861,69.28,51,1,3.67,clear sky,Floresta Amazonica Hotel
206,Salinopolis,BR,-0.6136,-47.3561,78.39,82,43,11.23,scattered clouds,Salinas Park Resort Maçarico AP101
209,Castelo Do Piaui,BR,-5.3222,-41.5525,71.64,51,14,2.59,few clouds,Nobre Hotel
211,Suluq,LY,31.6682,20.2521,75.07,75,0,5.66,clear sky,ورشة الحضيري لاكترونات وخدمات النت
212,Kupang,ID,-10.1667,123.5833,86.58,66,75,13.8,broken clouds,Hotel On The Rock by Prasanthi
213,Nuevitas,CU,21.5453,-77.2644,78.49,81,19,8.81,few clouds,Hotel Caonaba
214,Kalianget,ID,-7.05,113.9333,83.39,74,67,9.73,broken clouds,Pesanggrahan Garam
215,Point Pedro,LK,9.8167,80.2333,84.92,70,100,9.98,overcast clouds,Gtr homes
220,Sao Filipe,CV,14.8961,-24.4956,77.79,79,48,13.78,scattered clouds,Hotel Xaguate
221,Humaita,BR,-7.5061,-63.0208,74.66,63,6,1.28,clear sky,Corrêa Hotel
222,Kharan,PK,28.5833,65.4167,89.29,19,19,5.57,few clouds,Dil Aram Bangla
223,Muisne,EC,0.6,-80.0333,73.09,88,100,8.75,overcast clouds,Quinta Samay
224,Kainantu,PG,-6.2887,145.8655,67.91,83,100,3.58,overcast clouds,Sylvester buku
226,Krasnoselkup,RU,65.7,82.4667,60.08,48,100,8.68,overcast clouds,Krasnosel'kupnefteprodukt
227,Alofi,NU,-19.0595,-169.9187,80.49,78,68,9.22,broken clouds,Taloa Heights
228,Souillac,MU,-20.5167,57.5167,66.58,88,40,18.41,scattered clouds,Shanti Maurice Resort & Spa
229,Kalmar,SE,56.6616,16.3616,61.97,88,14,3.44,few clouds,First Hotel Witt
230,Dahegam,IN,23.1667,72.8167,83.97,79,87,15.19,overcast clouds,OYO 3231 Malhaar Resort
231,Coahuayana,MX,18.7333,-103.6833,78.03,91,100,2.46,overcast clouds,El rranchito michuacan de ocampos
232,Madang,PG,-5.2246,145.7966,75.96,96,100,5.55,overcast clouds,Comfort Inn Hotel
234,Hirara,JP,24.8,125.2833,85.86,84,75,6.91,broken clouds,Hotel Atoll Emerald Miyakojima
235,Georgetown,MY,5.4112,100.3354,87.89,82,20,14.97,few clouds,Cititel Penang
237,Samarai,PG,-10.6167,150.6667,77.7,89,98,20.54,overcast clouds,Nuli Sapi
238,Harindanga,IN,22.0383,88.3214,84.25,75,99,5.55,overcast clouds,Hasanur Builders
240,Maningrida,AU,-12.0667,134.2667,86.76,39,3,12.26,clear sky,Dhukurrdji Lodge
241,Lompoc,US,34.6391,-120.4579,66.34,86,0,10.36,clear sky,"Holiday Inn Express Lompoc, an IHG Hotel"
242,Manokwari,ID,-0.8667,134.0833,83.01,72,48,5.14,scattered clouds,Swiss Belhotel Manokwari
243,Boysun,UZ,38.2061,67.1986,79.27,23,0,4.83,clear sky,Gaza Hotel
244,Garoua Boulai,CM,5.8833,14.55,64.69,98,100,5.19,overcast clouds,Motel l'as Vegas
248,Venustiano Carranza,MX,19.43,-99.0992,67.14,58,100,15.01,overcast clouds,We Hotel Aeropuerto
249,Bubaque,GW,11.2833,-15.8333,79.25,83,99,15.88,light rain,"Casa Dora, Bubaque"
251,Faanui,PF,-16.4833,-151.75,78.21,77,6,13.49,light rain,Bora-Bora Pearl Beach Resort & Spa
252,Stanghelle,NO,60.5528,5.7357,60.84,95,100,1.5,light rain,Fishing Paradise
253,Grand Gaube,MU,-20.0064,57.6608,66.6,76,95,8.01,light rain,Veranda Paul et Virginie Hotel & Spa
254,Labuhan,ID,-6.8844,112.2051,86.65,64,53,8.52,broken clouds,DoubleFAG
255,Monrovia,LR,6.3005,-10.7969,75.88,85,85,11.74,light rain,Sunset Inn
256,Zalesovo,RU,53.9939,84.7431,72.48,65,90,4.79,overcast clouds,Кафе 22rus
259,Trabzon,TR,40.9167,39.8333,73.49,61,75,8.05,broken clouds,SANDALS HOTEL
261,Omboue,GA,-1.5746,9.2618,71.01,85,99,4.92,overcast clouds,Hotel Olako
262,Custoias,PT,41.1053,-7.321,64.15,74,0,2.3,clear sky,Casa Do Adro / Solar Corte Real - José Carlos Pereira Corte Real
264,Aswan,EG,24.0934,32.907,87.1,25,0,5.75,clear sky,Nuba Nile
265,Canto Do Buriti,BR,-8.11,-42.9444,72.93,34,1,2.21,clear sky,Novo Hotel
266,Auki,SB,-8.7676,160.7034,81.27,80,65,1.12,broken clouds,Auki Motel
268,Varzea Da Palma,BR,-17.5981,-44.7308,61.09,43,100,3.85,overcast clouds,Casa Fernandes
269,Puerto Escondido,MX,15.85,-97.0667,77.83,73,100,3.44,overcast clouds,Aldea del Bazar Hotel and Spa
270,San Matias,BO,-16.3667,-58.4,60.19,51,0,3.87,clear sky,"HOTEL ""SAN JOSE"""
271,Katobu,ID,-4.9408,122.5276,81.73,83,34,5.41,scattered clouds,La Ode Husein
272,Asfi,MA,32.2994,-9.2372,69.82,85,0,13.33,clear sky,Hôtel Abda
273,Sitka,US,57.0531,-135.33,66.09,72,75,0.0,broken clouds,Westmark Sitka
274,Locri,IT,38.2414,16.2623,70.32,80,33,5.12,scattered clouds,Grand Hotel President
276,Bocas Del Toro,PA,9.3333,-82.25,79.36,84,100,11.63,overcast clouds,Hotel Bocas del Toro
277,Mahebourg,MU,-20.4081,57.7,66.49,88,40,18.41,scattered clouds,Shandrani Beachcomber Resort & Spa
278,Acapulco,MX,16.8634,-99.8901,82.22,69,75,2.3,broken clouds,HS Hotsson Smart Acapulco
279,Jabinyanah,TN,35.035,10.9081,80.4,71,0,9.42,clear sky,maison belmabrouk
280,Sitio Novo Do Tocantins,BR,-5.5183,-47.4611,73.54,49,3,1.45,clear sky,Imperial Hotel
284,Standish,US,43.9831,-83.9589,67.84,61,0,7.36,clear sky,Standish Motel
287,Mackay,AU,-21.15,149.2,74.68,66,59,8.43,broken clouds,International Lodge Motel
288,Kavieng,PG,-2.5744,150.7967,83.21,73,100,10.13,light rain,Nusa Island Retreat
289,San Buenaventura,MX,27.0833,-101.5333,85.48,50,98,17.92,overcast clouds,Hotel Gran Plaza
292,Waspan,NI,14.7419,-83.9717,74.43,97,100,2.71,overcast clouds,Hostal casa de la rose
293,Victoria,HK,22.2855,114.1577,78.94,95,98,1.01,heavy intensity rain,Mini Central
297,Tura,IN,25.5198,90.2201,84.54,68,22,5.08,few clouds,Hotel RIKMAN Continental
298,Krasnoarmeysk,RU,51.0239,45.6969,69.37,74,6,11.63,clear sky,"Hotel ""Your home-Balzer"""
300,Maragogi,BR,-9.0122,-35.2225,72.55,85,0,4.74,clear sky,Salinas do Maragogi All Inclusive Resort
301,Sabha,LY,27.0377,14.4283,80.38,27,0,11.03,clear sky,محطة ام الارانب -سبها مواصلات
303,Belyy Yar,RU,53.6039,91.3903,73.85,60,0,4.47,clear sky,Pasportnyy Stol
304,Zyryanovsk,KZ,49.7386,84.2719,76.17,38,48,1.74,scattered clouds,Гостиница «ЭВЕРЕСТ»
306,Lorengau,PG,-2.0226,147.2712,81.88,77,100,2.59,overcast clouds,Lorengau Harbourside Hotel
307,San Ramon,US,37.7799,-121.978,69.39,74,0,12.66,clear sky,San Ramon Marriott
309,Fomboni,KM,-12.28,43.7425,76.3,67,29,17.22,scattered clouds,Auberge les abou
311,Port Blair,IN,11.6667,92.75,82.44,78,40,11.5,scattered clouds,"Welcomhotel By ITC Hotels, Bay Island, Port Blair"
312,Kokoda,PG,-8.8785,147.7407,79.14,90,100,3.78,overcast clouds,Daito Guest House
314,Kamalganj,IN,27.2667,79.65,88.43,60,23,19.3,few clouds,Maa Ganga Tent Hause
315,Kita,ML,13.0349,-9.4895,73.58,95,98,3.6,overcast clouds,Hôtel Chat Rouge
316,Toktogul,KG,41.8708,72.9402,74.53,44,0,1.88,clear sky,KAGAN
317,Oussouye,SN,12.485,-16.5469,80.69,85,100,7.0,light rain,Auberge du Routard
318,Ha Giang,VN,22.8333,104.9833,85.42,81,66,3.04,broken clouds,Truong Xuan Resort
319,Panlaitan,PH,12.1191,119.8486,84.22,70,34,4.59,scattered clouds,SOUTH BEACH
321,Pringsewu,ID,-5.3582,104.9744,88.12,60,20,2.98,few clouds,Urban Style by Front One
322,Srivardhan,IN,18.0333,73.0167,80.82,85,83,21.63,broken clouds,Savli Resort/Hotel - Shrivardhan
325,Muros,ES,42.7762,-9.0603,61.09,94,0,2.73,clear sky,Apartment Av. Castelao
326,Komatipoort,ZA,-25.4332,31.9548,62.71,61,0,4.76,clear sky,Kruger View Backpackers
327,Shahrud,IR,36.4182,54.9763,73.63,17,0,3.67,clear sky,Royal Hotel
328,Bilibino,RU,68.0546,166.4372,64.35,67,96,5.84,light rain,Gostinitsa Severyanka
329,Bida,NG,9.0833,6.0167,72.25,97,100,1.68,overcast clouds,Royal Suite
331,Butaritari,KI,3.0707,172.7902,82.49,75,17,14.74,few clouds,Isles Sunset Lodge
332,Smithers,CA,54.7804,-127.1743,79.12,44,20,4.61,few clouds,"Prestige Hudson Bay Lodge, Premier Collection"
337,Margate,GB,51.3813,1.3862,69.31,93,16,3.0,few clouds,Premier Inn Margate hotel
339,Sankanan,PH,8.3156,124.8581,75.13,65,42,3.15,scattered clouds,Soviana Guest House
340,Saint-Remi,CA,45.2668,-73.6159,64.35,75,3,2.3,clear sky,Golden Triangle Golf Course
341,Gusinoye Ozero,RU,51.1144,106.2614,73.15,46,35,3.74,scattered clouds,Gusi-Lebedi Baza Otdykha
344,Katherine,AU,-14.4667,132.2667,88.12,40,40,9.22,scattered clouds,Pine Tree Motel
345,Half Moon Bay,US,37.4636,-122.4286,68.79,80,75,25.32,broken clouds,"The Ritz-Carlton, Half Moon Bay"
346,Yalvac,TR,38.2956,31.1778,63.37,72,0,4.03,clear sky,Yalvac Ogretmenevi
347,Santa Leopoldina,BR,-20.1006,-40.5297,69.62,87,88,4.09,overcast clouds,Pousada e padaria central
349,Buta,CD,2.7858,24.73,69.64,99,100,3.0,light rain,Hôtel BOPANDO
350,Lakes Entrance,AU,-37.8811,147.981,63.16,63,76,7.36,broken clouds,The Esplanade Resort & Spa
351,Harper,LR,4.375,-7.7169,75.06,82,100,10.67,overcast clouds,Screensaver
352,Bonthe,SL,7.5264,-12.505,75.4,89,91,8.12,moderate rain,Bonthe Holiday Village
354,Ballina,AU,-28.8667,153.5667,69.01,72,100,11.48,overcast clouds,Ramada Hotel & Suites by Wyndham Ballina Byron
356,Santa Lucia,ES,27.9117,-15.5407,63.72,73,20,14.97,few clouds,Las Tirajanas
359,Nargana,PA,9.4428,-78.5906,78.51,87,100,8.55,overcast clouds,Dubbir
362,Deniliquin,AU,-35.5333,144.9667,61.88,47,86,13.8,overcast clouds,Riviana Motel
363,Pitimbu,BR,-7.4706,-34.8086,72.19,83,7,3.8,clear sky,Reserva do Abiaí
364,Sambava,MG,-14.2667,50.1667,68.94,84,99,12.15,light rain,Melrose
365,Yulara,AU,-25.2406,130.9889,62.22,26,0,13.15,clear sky,Desert Gardens Hotel - Ayers Rock Resort
366,Geraldton,AU,-28.7667,114.6,64.81,48,0,23.02,clear sky,Broadwater Mariner Resort
368,Winnemucca,US,40.973,-117.7357,82.45,34,0,4.61,clear sky,Winners Inn Casino
369,Mahibadhoo,MV,3.7833,72.9667,81.37,78,90,2.95,overcast clouds,Omadhoo Inn
370,Iwanai,JP,42.9744,140.5089,80.53,71,19,7.67,few clouds,いわない高原ホテル
371,Yamada,JP,39.4667,141.95,83.93,64,100,9.4,light rain,Iroha-ya Inn
372,Roxana,CR,10.2753,-83.7513,77.04,98,100,2.46,overcast clouds,3BYES1
373,Osmena,PH,10.5208,119.9258,84.09,70,33,2.55,light rain,Arjemarkyza Lodge
374,Akyab,MM,20.15,92.9,81.86,82,94,8.1,overcast clouds,ဟိုတယ် မန်မိုရီ
375,Vilyuysk,RU,63.7553,121.6247,62.74,60,100,5.39,overcast clouds,Gostinitsa Viliuisk
376,Kendari,ID,-3.945,122.4989,84.42,70,70,7.07,broken clouds,Hotel Wixel
377,Hay River,CA,60.8156,-115.7999,60.78,63,40,5.75,scattered clouds,Ptarmigan Inn
378,Vangaindrano,MG,-23.35,47.6,65.71,85,97,3.69,light rain,Hotel Fanilo
379,Gigmoto,PH,13.7796,124.39,85.51,74,83,4.03,broken clouds,Cj's Travellers Inn
381,Semnan,IR,35.5729,53.3971,78.01,24,0,2.13,clear sky,Semnan Tourist Hotel
382,Fukue,JP,32.6881,128.8419,86.36,79,75,9.22,moderate rain,Goto Guesthouse Utojuku & SA Car Rental
383,Pangai,TO,-19.8,-174.35,80.71,65,40,8.05,scattered clouds,Ha'apai Beach Resort
385,Sabang,ID,5.8933,95.3214,82.58,72,88,14.32,overcast clouds,Hotel Citra
387,Saint-Leu,RE,-21.15,55.2833,67.32,65,9,2.39,clear sky,La Caz Oceane
389,Lisala,CD,2.15,21.5167,69.96,98,100,1.7,light rain,Guest house Eden
390,Tomari,RU,47.7658,142.0683,70.5,85,78,8.46,broken clouds,Vostochnaya
391,Angoche,MZ,-16.2325,39.9086,66.78,87,0,3.49,clear sky,Guest House HESADA
392,Road Town,VG,18.4167,-64.6167,81.45,75,95,18.57,overcast clouds,"ZINGARA 76ft Catamaran, full crew-all included"
393,Ketchikan,US,55.3422,-131.6461,63.07,77,0,10.36,clear sky,Snow's Cove Lodge
394,Hualmay,PE,-11.0964,-77.6139,61.45,83,39,10.09,scattered clouds,Hotel Villa Kitzia Huacho
395,Wajima,JP,37.4,136.9,84.88,78,75,10.36,broken clouds,Wajiima Onsen Yashio
397,Kokopo,PG,-4.352,152.2633,82.72,70,68,6.51,light rain,Kokopo Beach Bungalow Resort
400,Bengkulu,ID,-3.8004,102.2655,83.07,74,73,4.41,broken clouds,Grage Hotel Bengkulu
402,Pitsunda,GE,43.1592,40.3378,77.18,81,28,6.87,scattered clouds,Hotel FREEDOM
403,Kaohsiung,TW,22.6163,120.3133,89.69,67,75,8.05,broken clouds,御宿商旅-中山館
405,Odweyne,SO,9.4092,45.064,68.79,69,98,21.3,overcast clouds,Eng Hiirey House
406,Bogdanovich,RU,56.7803,62.0494,61.2,66,43,13.76,scattered clouds,"Pervomayskaya, Gostinitsa"
407,Veraval,IN,20.9,70.3667,80.98,90,98,26.62,overcast clouds,Lords Inn Somnath
412,Havelock,US,34.8791,-76.9013,84.18,82,40,9.22,scattered clouds,Sherwood Motel
413,Harqalah,TN,36.0303,10.509,80.46,73,40,6.91,scattered clouds,Dar Khadija
414,Broome,US,42.2506,-75.833,63.37,91,0,2.35,clear sky,Chenango Valley State Park
415,Suhbaatar,MN,50.2314,106.2078,67.01,61,84,2.57,broken clouds,Hotel Nine
417,Vila Velha,BR,-20.3297,-40.2925,69.94,71,0,8.05,clear sky,Hotel Vitória Palace
418,Katsuura,JP,35.1333,140.3,84.56,77,10,20.49,clear sky,Katsuura Hotel Mikazuki
420,Bavly,RU,54.393,53.2602,63.14,62,51,2.55,broken clouds,Neftyanik
421,Padang,ID,-0.9492,100.3543,84.25,72,36,5.17,scattered clouds,Mercure Padang
422,Qeshm,IR,26.9581,56.2719,89.49,61,57,2.73,broken clouds,Qeshm Kavan Hotel
424,Upata,VE,8.0086,-62.3989,70.21,95,68,2.37,broken clouds,Posada Villa Nela
425,Nantucket,US,41.2835,-70.0995,69.03,75,0,4.61,clear sky,Jared Coffin House
426,Vila Franca Do Campo,PT,37.7167,-25.4333,75.2,90,92,7.38,overcast clouds,Pestana Bahia Praia
427,Eureka,US,40.8021,-124.1637,65.17,80,5,1.01,clear sky,Eureka Inn Trademark By Wyndham
430,Smoky Lake,CA,54.1169,-112.4686,72.18,73,10,5.75,light rain,Country Garden Hotel
431,Chickasha,US,35.0526,-97.9364,85.35,45,0,9.22,clear sky,"Holiday Inn Express & Suites Chickasha, an IHG Hotel"
432,Lagoa,PT,39.05,-27.9833,73.4,82,98,13.04,light rain,Casa Das Faias
433,Nerchinskiy Zavod,RU,51.3088,119.61,62.26,80,96,1.43,moderate rain,Gostinitsa
435,San Patricio,US,28.017,-97.5169,85.89,78,100,3.78,light rain,"Motel 6 Sinton, TX"
437,Laguna,US,38.421,-121.4238,84.18,47,0,10.36,clear sky,"Holiday Inn Express & Suites Elk Grove Central - Hwy 99, an IHG Hotel"
438,Puerto El Triunfo,SV,13.2833,-88.55,74.97,90,100,2.01,overcast clouds,Hotel Jardin
439,Regeneracao,BR,-6.2378,-42.6883,71.83,53,3,2.55,clear sky,Hotel KANAYRA
440,Punto Fijo,VE,11.6956,-70.1996,81.55,81,99,22.77,overcast clouds,Santa Fe Inn Hotel
441,Nikolskoye,RU,59.7035,30.7861,64.29,85,79,6.06,broken clouds,Tourist House - Sablino
443,Urdoma,RU,61.7533,48.5442,61.97,68,96,10.16,overcast clouds,Vikonda
444,Laksham,BD,23.2472,91.1425,87.12,70,92,7.61,overcast clouds,MRI ROBEL
445,Iganga,UG,0.6092,33.4686,65.14,88,100,4.36,overcast clouds,Hilltop Hotel
447,Atasu,KZ,48.6814,71.6433,70.59,55,0,9.6,clear sky,Dostyk
448,Saint Anthony,US,45.0205,-93.218,73.81,62,0,5.75,clear sky,"Holiday Inn Express Roseville-St. Paul, an IHG Hotel"
449,Yarada,IN,17.65,83.2667,86.32,74,75,12.66,mist,Yarada Jungle Beach Resorts
452,Lebanon,US,36.2081,-86.2911,76.78,90,0,3.44,clear sky,Hampton Inn & Suites Lebanon
455,Morondava,MG,-20.2833,44.2833,66.15,85,0,8.79,clear sky,La Case Bambou
456,Svetlogorsk,BY,52.6333,29.7333,61.84,82,6,8.99,clear sky,Hotel Svetlogorsk JBIK
457,Saravena,CO,6.9538,-71.8752,70.74,97,72,2.68,broken clouds,Hotel Diamante Saravena
461,Guerrero Negro,MX,27.9769,-114.0611,72.37,81,6,13.73,clear sky,"Casa Laguna, Bed & Breakfast"
462,Westport,US,41.1415,-73.3579,77.94,81,100,5.75,overcast clouds,The Westport Inn
466,Dali,CN,25.7,100.1833,76.14,60,93,4.7,overcast clouds,Dali Travelling With Hostel
467,Ambilobe,MG,-13.2,49.05,67.78,58,2,4.76,clear sky,Hôtel & Restaurant DIANA Ambilobe
468,Fortuna,US,40.5982,-124.1573,64.9,81,100,8.05,overcast clouds,Super 8 by Wyndham Fortuna
470,Porto Novo,BJ,6.4965,2.6036,73.9,90,100,7.9,overcast clouds,Tour Eiffel Hotel Benin
471,Luanda,AO,-8.8368,13.2343,68.7,81,100,3.89,overcast clouds,EPIC SANA Luanda
472,Portoferraio,IT,42.8115,10.3146,78.58,41,100,5.06,overcast clouds,Hotel Villa Ombrosa
475,Port Augusta,AU,-32.5,137.7667,63.46,43,25,15.93,scattered clouds,Majestic Oasis Apartments
476,Lasa,IT,46.6166,10.7002,61.68,93,35,3.56,scattered clouds,Pension Feldgärtenhof
480,Sakakah,SA,29.9697,40.2064,89.17,28,0,6.42,clear sky,Fakhamat Al Orjoana Apartment
484,Mykolayivka,UA,47.5414,30.7561,72.21,67,100,12.41,overcast clouds,Готель
485,Mae Sai,TH,20.4335,99.8762,73.08,100,100,1.77,overcast clouds,Piyaporn Hill Paradise Hotel
491,Biak,ID,-0.9131,122.8766,83.91,68,74,1.88,broken clouds,Penginapan Kim
492,Cartama,ES,36.7107,-4.633,80.17,75,20,5.75,few clouds,GCE Hoteles
494,Loiza,PR,18.4313,-65.8802,82.4,80,40,10.36,scattered clouds,Vacation Realty
500,Tateyama,JP,34.9833,139.8667,86.09,80,37,18.72,scattered clouds,Tateyama Seaside Hotel
502,Singaraja,ID,-8.112,115.0882,84.22,71,28,3.33,scattered clouds,Puri Bagus Lovina Resort
503,Segou,ML,13.4317,-6.2157,77.27,82,63,8.23,broken clouds,Comme chez soi
504,Aksay,RU,47.26,39.87,81.25,31,100,7.0,light rain,Chernaya Zhemchuzhina
505,Vieques,PR,18.425,-65.8329,82.44,74,40,10.36,scattered clouds,"The St. Regis Bahia Beach Resort, Puerto Rico"
506,Degollado,MX,20.467,-102.1498,65.68,72,100,0.54,overcast clouds,Gran Hotel Porton de consuelo
507,Galveston,US,29.3669,-94.9669,85.96,79,20,10.36,few clouds,Crystal Suites
508,Namatanai,PG,-3.6667,152.4333,84.56,64,69,10.89,broken clouds,Seagulls Inn Namatani
510,Kilindoni,TZ,-7.9139,39.6668,74.98,73,8,10.38,clear sky,Bustani B&B
511,Swan River,CA,52.1058,-101.2676,62.49,77,90,2.3,overcast clouds,Super 8 by Wyndham Swan River MB
512,Lahaina,US,20.8783,-156.6825,87.8,81,67,12.73,broken clouds,Lahaina Shores Beach Resort
513,Marsaxlokk,MT,35.8419,14.5431,78.08,88,20,1.14,few clouds,Water's Edge
514,Erzincan,TR,39.75,39.5,61.9,77,0,3.44,clear sky,Eriza Boutique Hotel
515,Kavaratti,IN,10.5669,72.642,81.07,84,100,17.9,overcast clouds,Green leaf
516,Nemuro,JP,43.3236,145.575,68.83,95,98,19.6,overcast clouds,Hotel Nemuro Kaiyoutei
517,Anori,BR,-3.7728,-61.6442,76.84,56,96,2.53,overcast clouds,Novo Hotel 5 Irmãos
518,Naples,IT,40.8333,14.25,76.75,72,20,2.3,few clouds,Renaissance Naples Hotel Mediterraneo
520,Colares,PT,38.7992,-9.4469,67.75,78,0,10.0,clear sky,Arribas Sintra Hotel
522,Coffs Harbour,AU,-30.3,153.1333,67.14,63,100,9.22,overcast clouds,Aquajet Motel
523,Nicoya,CR,10.1483,-85.452,74.55,93,100,2.44,overcast clouds,Las Cabinas Del Sueño
524,Kargasok,RU,59.0556,80.8572,63.79,49,8,5.86,clear sky,Hotel Kargasok
525,Tomatlan,MX,19.9333,-105.25,76.98,94,100,2.84,overcast clouds,El Salvial
526,Puerto Del Rosario,ES,28.5004,-13.8627,71.35,78,100,11.5,overcast clouds,Hotel JM Puerto del Rosario
527,Nuevo Progreso,MX,23.1667,-97.95,81.54,64,5,4.21,clear sky,Balneario Rio el Paraiso
528,Nishihara,JP,26.1842,127.7558,89.65,74,40,5.75,scattered clouds,Minshuku Agaihama
529,Kiama,AU,-34.6833,150.8667,63.57,69,100,5.01,overcast clouds,The Sebel Kiama Harbourside
530,Magaria,NE,12.9983,8.9099,74.71,72,79,8.72,broken clouds,Chez Honorable Chapiou
531,Bulungu,CD,-4.55,18.6,70.07,28,12,2.57,few clouds,Maison MC Michel
532,Kota Belud,MY,6.351,116.4305,89.17,58,74,6.02,broken clouds,Tang Dynasty Lodge Kota Belud
533,Kirkcudbright,GB,54.8383,-4.0491,60.01,67,7,8.34,clear sky,The Selkirk Arms Hotel & Restaurant
535,Clyde,US,41.3042,-82.9752,68.56,75,2,9.57,clear sky,Red Roof Inn Clyde
536,Paita,PE,-5.0892,-81.1144,62.91,85,87,10.09,overcast clouds,Hotel Náutico de Paita
537,Bama,NG,11.5221,13.6856,71.47,89,100,10.6,light rain,UN Humanitarian Hub
538,Jumla,NP,29.2747,82.1838,76.3,55,5,3.42,clear sky,Royal Garden Hotel
539,Tagusao,PH,9.1924,117.8141,87.13,64,65,1.92,broken clouds,Caycay future beach resort
541,Santa Barbara,US,34.7333,-120.0343,69.82,77,0,5.75,clear sky,Upper Ballard Campground
542,Goderich,CA,43.7501,-81.7165,67.91,82,0,8.05,clear sky,Harmony Inn
544,Banjar,ID,-8.19,114.9675,86.16,67,29,3.69,scattered clouds,The Hamsa Resort
545,Singarayakonda,IN,15.25,80.0333,88.9,51,79,21.88,broken clouds,Sri Nrk A/C Lodge
547,Kingman,US,35.1894,-114.053,87.28,60,40,6.91,moderate rain,Rodeway Inn Kingman Route 66
548,Dewas,IN,22.9667,76.0667,77.18,88,96,16.71,overcast clouds,OYO 71164 Hotel Suryaansh
549,Dingle,PH,10.9995,122.6711,85.93,72,86,4.9,overcast clouds,SEGAYA PROPERTY
551,Motygino,RU,58.1831,94.7592,66.72,48,0,5.79,clear sky,"Gostinitsa ""Uyut"""
552,Mustasaari,FI,63.1142,21.6822,61.9,88,100,2.3,light rain,Hotel Astor
553,Maceio,BR,-9.6658,-35.7353,72.84,94,0,3.44,clear sky,Hotel Ponta Verde Maceió
555,Kirovskiy,RU,45.0917,133.5136,74.3,61,21,10.2,few clouds,"Uyut, Gostinitsa"
560,Rosarito,MX,32.3333,-117.0333,77.23,67,90,7.38,overcast clouds,Hotel Festival Plaza Rosarito
562,Inuvik,CA,68.3499,-133.7218,67.06,44,75,4.61,broken clouds,Nova Inn Inuvik
564,Pierre,US,44.3683,-100.351,84.85,66,0,20.0,clear sky,Ramkota Hotel
566,Ceyhan,TR,37.0247,35.8175,79.14,77,74,1.1,broken clouds,Ilbeyli Kiz Ogrenci Yurdu
567,Karratha,AU,-20.7377,116.8463,75.11,27,25,23.53,scattered clouds,ibis Styles Karratha
569,Shchigry,RU,51.8755,36.9043,66.02,78,13,13.27,few clouds,Базилик Щигры
570,Sinnamary,GF,5.3833,-52.95,78.12,82,31,7.02,scattered clouds,ALETHEIA Appartement Sinnamary
571,Los Llanos De Aridane,ES,28.6585,-17.9182,67.75,88,100,9.22,overcast clouds,Valle Aridane
574,Hovd,MN,48.0056,91.6419,76.3,28,42,6.62,scattered clouds,Hotel Khovd
575,Pundaguitan,PH,6.3711,126.1689,83.75,69,6,6.2,clear sky,Leonardo Family Beach House 1
576,Siniscola,IT,40.5719,9.6922,72.95,62,2,5.79,clear sky,Hotel Sa Tanca E Bore
579,Khandyga,RU,62.6667,135.6,71.29,55,86,2.13,overcast clouds,Apel'sin
580,Sheridan,US,44.8333,-106.9173,77.7,51,0,3.44,clear sky,Comfort Inn & Suites
582,Wuda,CN,39.4994,106.7117,83.32,62,59,5.68,broken clouds,Grape Sightseeing Garden
583,Kenai,US,60.5544,-151.2583,62.69,95,100,10.36,light rain,Aspen Extended Stay Suites
585,Stabat,ID,3.761,98.4513,86.2,53,93,1.81,overcast clouds,Link VII damai
586,Tyazhinskiy,RU,56.116,88.524,68.34,45,3,7.16,clear sky,Gostinitsa Udacha
587,Slave Lake,CA,55.2834,-114.769,67.98,83,0,10.36,clear sky,Super 8 by Wyndham Slave Lake AB
589,Requena,ES,39.4883,-1.1004,66.79,58,0,4.23,clear sky,Hotel Avenida
593,Ruteng,ID,-8.6136,120.4721,71.37,78,41,1.68,scattered clouds,Hotel FX 72
594,Koumac,NC,-20.5667,164.2833,73.56,53,2,8.63,clear sky,Le Monitel
595,Yangliuqing,CN,39.1375,116.9997,85.95,55,57,4.18,broken clouds,如庭快捷酒店
596,Marsa Matruh,EG,31.3525,27.2453,75.4,78,0,5.75,clear sky,Beau Site
597,Alpena,US,45.0617,-83.4327,63.1,73,0,4.61,clear sky,Days Inn by Wyndham Alpena
598,Kisangani,CD,0.5167,25.2,69.42,98,91,2.48,overcast clouds,Grand Ramela Hotel
599,Baruun-Urt,MN,46.6806,113.2792,73.15,46,65,6.71,broken clouds,Ахмадын амралт сувилал
600,Vanino,RU,49.0869,140.2543,70.14,64,75,4.14,broken clouds,Гостиница 5 Звезд
601,Suwannaphum,TH,15.6035,103.8021,80.08,77,100,10.31,overcast clouds,วรรณมณี รีสอร์ท
602,Buchanan,LR,5.8808,-10.0467,75.07,86,92,10.33,light rain,Kamaneahn Hotel Inc
603,Lethem,GY,3.3803,-59.7968,74.26,89,49,1.86,light rain,Savannah Inn
604,Riyadh,SA,24.6877,46.7219,89.74,24,58,20.83,broken clouds,"InterContinental Riyadh, an IHG Hotel"
605,Trat,TH,12.5,102.5,86.2,75,100,9.86,light rain,สวนหนิง-อัศ
606,Samur,RU,41.8253,48.486,81.88,48,0,4.79,clear sky,Samur
607,Australind,AU,-33.2667,115.7167,62.29,58,0,14.2,clear sky,ON THE ESTUARY
608,Salisbury,GB,51.0693,-1.7957,66.97,65,0,4.61,clear sky,Mercure Salisbury White Hart Hotel
609,Cheney,US,47.4874,-117.5758,82.72,43,20,10.36,few clouds,"Holiday Inn Express & Suites Cheney, an IHG Hotel"
612,Indiana,US,40.0003,-86.2503,69.51,81,0,5.75,clear sky,WonderTree
614,Tautira,PF,-17.7333,-149.15,77.99,73,33,13.87,light rain,Pension Oaoa
616,Nova Russas,BR,-4.7067,-40.5631,71.47,69,35,3.89,scattered clouds,palace motel
617,Itarema,BR,-2.9248,-39.9167,76.69,86,62,13.42,broken clouds,"Sea Lounge! Bar, Club & Restaurant"
618,Bambous Virieux,MU,-20.3428,57.7575,67.21,88,40,18.41,scattered clouds,Casa Tia Villa
619,Khani,GE,41.9563,42.9566,63.97,70,20,1.14,few clouds,კურორტი ზეკარი/Resort Zekari
620,Rock Sound,BS,24.9,-76.2,81.97,74,0,15.93,clear sky,Pink Corral Bay Property
622,Aberystwyth,GB,52.4155,-4.0829,63.52,69,1,6.89,clear sky,Aberystwyth Park Lodge Hotel
624,Houma,US,29.5958,-90.7195,77.0,93,100,0.0,overcast clouds,Courtyard by Marriott Houma
625,Waddan,LY,29.1614,16.139,77.58,35,0,8.75,clear sky,محل الشريف محمد العايب
626,Juruti,BR,-2.1522,-56.0922,78.35,54,25,2.37,scattered clouds,Pousada Marupiara
627,San Policarpo,PH,12.1791,125.5072,84.36,73,99,5.93,overcast clouds,Agapita M. Nicart
628,Sumbe,AO,-11.2061,13.8437,69.01,83,97,3.04,overcast clouds,Hotel Ritz Sumbe
630,Kurchum,KZ,48.5722,83.6542,76.21,36,98,3.33,overcast clouds,"""Kneda"" Hotel"
631,Don Sak,TH,9.3168,99.6918,87.69,64,95,12.37,overcast clouds,Lam-tong Resort
633,Moussoro,TD,13.6408,16.4901,81.54,67,100,8.19,overcast clouds,Pharmacie alnadja Moussoro
634,Weyburn,CA,49.6668,-103.8511,64.62,77,98,8.05,overcast clouds,Perfect Inns & Suites
635,Huarmey,PE,-10.0681,-78.1522,62.04,86,23,9.24,few clouds,Hotel Miramar
637,Tambura,SS,5.6,27.4667,66.6,99,100,3.11,overcast clouds,Rikito Lodge
638,Kuna,US,43.4918,-116.4201,84.4,57,42,0.0,haze,Winfield Springs
639,Kraksaan,ID,-7.7585,113.3962,86.23,66,37,6.89,scattered clouds,Asrama Hati
641,Nabire,ID,-3.3667,135.4833,87.39,60,9,5.19,clear sky,Hotel Nusantara I
646,Caceres,ES,39.522,-6.3748,68.72,52,0,1.14,clear sky,Ahc Hoteles
647,Garowe,SO,8.4054,48.4845,74.35,61,97,23.53,overcast clouds,Curubo Hotel
650,Carauari,BR,-4.8828,-66.8958,74.82,74,62,2.19,broken clouds,Hotel Fellip
653,Cockburn Town,TC,21.4612,-71.1419,82.26,75,47,18.95,scattered clouds,Osprey Beach Hotel
656,Carutapera,BR,-1.195,-46.02,76.32,84,33,6.91,scattered clouds,Lidera
658,Brownwood,US,31.7093,-98.9912,88.92,48,5,13.62,clear sky,La Quinta Inn & Suites by Wyndham Brownwood
659,Oranjestad,AW,12.524,-70.027,82.35,83,20,19.57,few clouds,Divi Village Golf & Beach Resort
660,Gerash,IR,27.6652,54.1371,82.54,13,4,7.7,clear sky,Sa'adat House Gerash
661,Quezailica,HN,14.8833,-88.7333,69.75,99,100,1.61,overcast clouds,Rancho La Perla
662,Beira,MZ,-19.8436,34.8389,62.69,100,100,6.91,fog,Beira Terrace Hotel
663,Kaliua,TZ,-5.0606,31.7936,63.07,63,54,6.71,broken clouds,Millennium Complex
665,Eseka,CM,3.65,10.7667,71.37,99,100,1.28,light rain,Complexe Hotelier Ndjiki Mpeck Eseka II
666,Pesaro,IT,43.9036,12.8903,73.13,64,100,7.61,overcast clouds,Savoy
667,Am Timan,TD,11.0297,20.2827,71.02,98,100,4.27,moderate rain,Palais du chef Canton Salamt
668,Puri,IN,19.8,85.85,81.12,82,100,2.73,moderate rain,OYO 1577 Hotel Shree Hari Grand
669,Clacton-On-Sea,GB,51.7897,1.156,66.78,86,20,4.0,few clouds,The Sandrock
671,Komsomolskiy,UZ,40.4272,71.7189,83.12,24,0,6.91,clear sky,Ikathouse
672,Monte Alegre,BR,-2.0078,-54.0692,75.78,77,38,5.06,scattered clouds,Hotel Shekinah
673,Mogadishu,SO,2.0371,45.3438,76.87,78,40,13.8,scattered clouds,Hotel Juba
674,Mucurapo,TT,10.6667,-61.5333,78.85,89,1,7.38,clear sky,Courtyard by Marriott Port of Spain
675,Carballo,ES,43.213,-8.691,64.9,91,43,1.74,scattered clouds,Pazo do Souto
676,Parsabad,IR,39.6482,47.9174,71.92,88,0,4.61,clear sky,Peacock Hotel Magi
677,Tobol,KZ,52.6844,62.5794,66.67,65,98,13.4,overcast clouds,Tobol Gostinitsa
678,Carmen,MX,18.6333,-91.8333,79.18,80,100,7.36,overcast clouds,Hotel Lossandes
679,Rock Springs,US,41.5875,-109.2029,72.05,47,0,8.05,clear sky,Homewood Suites by Hilton Rock Springs
682,Koboko,UG,3.4136,30.9599,62.33,88,99,2.37,overcast clouds,Hotel Diplomat
683,Cananeia,BR,-25.0147,-47.9267,60.21,88,45,2.8,scattered clouds,Pousada Ancoradouro
684,Chibuto,MZ,-24.6867,33.5306,60.87,80,0,7.4,clear sky,Residência Masculina da Escola Superior de Negocios e Empreendedorismo de Chibuto
686,Acajutla,SV,13.5928,-89.8275,78.44,85,100,6.44,light rain,Laureles
688,Tiarei,PF,-17.5333,-149.3333,80.62,74,24,13.78,light rain,Le Rocher de Tahiti
689,Moerai,PF,-22.4333,-151.3333,73.38,78,9,4.59,clear sky,Le Manotel
694,Maple Creek,CA,49.9168,-109.4848,82.45,30,3,6.91,clear sky,Willowbend Campground & Cabins
695,Haapiti,PF,-17.5667,-149.8667,80.33,76,7,13.38,light rain,Linareva Moorea Beach Resort
696,Tanabe,JP,33.7333,135.3667,87.01,79,75,6.91,broken clouds,美吉屋旅館
698,Chengde,CN,40.9725,117.9361,85.05,57,85,3.71,overcast clouds,Super 8 Hotel
699,Naron,ES,43.5167,-8.1528,66.04,96,26,2.06,scattered clouds,Marcial
700,Kota Bahru,MY,6.1333,102.2386,82.35,88,20,3.44,moderate rain,Grand Riverview Hotel
701,Sorong,ID,-0.8833,131.25,82.33,78,12,9.51,few clouds,Waigo Splash Hotel
702,Terrasini,IT,38.146,13.0844,75.9,83,20,8.05,thunderstorm,Florio Park Hotel
703,San Cristobal,VE,7.7669,-72.225,77.18,98,51,2.48,broken clouds,Pirineos
704,Wamba,NG,8.9333,8.6,69.57,96,100,1.97,overcast clouds,Roma Zee Guest House Annex
705,Dwarka,IN,22.2394,68.9678,83.16,86,100,13.4,light rain,Hotel Narayan Avezika Comfort
